City_ID,City,Lat,Lng,Max Temp,Humidity,Cloudiness,Wind Speed,Country,Date
0,wailua homesteads,22.0669,-159.378,26.44,89,100,5.66,US,1691428136
1,echuca,-36.1333,144.75,6.09,90,0,2.71,AU,1691428137
2,waitangi,-43.9535,-176.5597,7.68,62,100,5.32,NZ,1691428137
3,margaret river,-33.95,115.0667,16.32,91,73,8.33,AU,1691428137
4,podporozh'ye,60.9112,34.1706,26.13,58,0,4.34,RU,1691428138
5,edinburgh of the seven seas,-37.0676,-12.3116,13.0,76,51,12.51,SH,1691428138
6,georgetown,5.4112,100.3354,28.96,79,20,0.51,MY,1691428138
7,tual,-5.6667,132.75,25.87,77,37,9.5,ID,1691428138
8,kodiak,57.79,-152.4072,12.73,94,100,4.63,US,1691428139
9,port-aux-francais,-49.35,70.2167,4.92,91,100,13.15,TF,1691428139
10,chonchi,-42.6128,-73.8092,12.56,63,95,1.37,CL,1691428139
11,invercargill,-46.4,168.35,3.9,89,100,0.45,NZ,1691428139
12,khandyga,62.6667,135.6,13.43,32,0,5.46,RU,1691428140
13,tiksi,71.6872,128.8694,5.62,69,27,0.98,RU,1691428140
14,iqaluit,63.7506,-68.5145,9.85,76,20,3.09,CA,1691427901
15,neryungri,56.6709,124.6491,16.28,67,96,1.31,RU,1691428140
16,yermakovskoye,53.2831,92.4003,18.21,77,100,1.19,RU,1691428141
17,sisimiut,66.9395,-53.6735,9.75,65,18,2.23,GL,1691428141
18,petropavlovsk-kamchatsky,53.0452,158.6483,8.33,100,0,2.0,RU,1691428141
19,antofagasta,-23.65,-70.4,19.92,68,11,3.81,CL,1691428142
20,bethel,41.3712,-73.414,24.31,90,100,1.54,US,1691428142
21,west island,-12.1568,96.8225,25.99,83,40,6.69,CC,1691428143
22,puerto ayora,-0.7393,-90.3518,28.98,83,61,3.13,EC,1691428143
23,adamstown,-25.066,-130.1015,20.2,71,7,2.67,PN,1691428143
24,hithadhoo,-0.6,73.0833,27.98,74,61,2.59,MV,1691428144
25,fereydun kenar,36.6864,52.5225,28.29,70,67,1.73,IR,1691428144
26,port mathurin,-19.6833,63.4167,22.39,68,98,11.37,MU,1691428144
27,enewetak,11.3474,162.3373,26.67,85,98,7.3,MH,1691428145
28,puerto natales,-51.7236,-72.4875,2.08,67,100,0.86,CL,1691428145
29,yarmouth,41.7057,-70.2286,24.98,80,100,4.63,US,1691427999
30,udachny,66.4167,112.4,16.36,58,89,1.74,RU,1691428146
31,albany,42.6001,-73.9662,22.43,89,100,1.34,US,1691428073
32,ushuaia,-54.8,-68.3,1.81,69,0,1.54,AR,1691427952
33,albestii pamanteni,45.2167,24.6667,19.26,53,35,2.94,RO,1691428147
34,zhytkavichy,52.2168,27.8561,14.9,90,87,5.13,BY,1691428147
35,rovira,4.2392,-75.24,32.41,36,76,3.25,CO,1691428147
36,touros,-5.1989,-35.4608,27.96,68,44,8.22,BR,1691428063
37,mariental,-24.6333,17.9667,20.15,14,0,3.15,NA,1691428148
38,serowe,-22.3833,26.7167,16.61,26,5,1.79,BW,1691428148
39,aykhal,66.0,111.5,15.5,46,100,1.9,RU,1691428133
40,grytviken,-54.2811,-36.5092,-4.5,84,98,4.9,GS,1691428149
41,bredasdorp,-34.5322,20.0403,11.67,85,0,1.53,ZA,1691428149
42,lompoc,34.6391,-120.4579,27.61,56,0,1.57,US,1691428150
43,anadyr,64.75,177.4833,10.28,93,75,5.0,RU,1691428151
44,ulladulla,-35.35,150.4667,9.07,85,19,2.31,AU,1691428152
45,tanumah,27.1,44.1333,35.44,8,0,5.42,SA,1691428152
46,golden valley,45.0097,-93.3491,26.92,64,40,5.14,US,1691428152
47,port elizabeth,-33.918,25.5701,17.28,87,0,5.26,ZA,1691428015
48,palikir - national government center,6.9248,158.1611,24.41,100,100,1.54,FM,1691428153
49,salcea,47.65,26.3667,22.51,52,0,5.14,RO,1691428153
50,st. john's,47.5649,-52.7093,16.27,94,100,8.23,CA,1691428153
51,warren,39.4334,-84.1666,24.48,87,40,5.14,US,1691428091
52,vadso,70.0744,29.7487,21.49,77,0,3.09,NO,1691428154
53,acarau,-2.8856,-40.12,31.51,52,20,10.27,BR,1691428154
54,kununurra,-15.7667,128.7333,16.99,55,18,2.06,AU,1691428155
55,harstad,68.799,16.5293,14.89,100,100,4.92,NO,1691428155
56,avarua,-21.2078,-159.775,21.03,83,40,1.54,CK,1691428155
57,les anglais,18.3054,-74.2197,31.99,64,7,4.33,HT,1691428156
58,puerto baquerizo moreno,-0.9,-89.6,26.55,69,75,6.69,EC,1691428156
59,ilulissat,69.2167,-51.1,11.01,46,20,2.06,GL,1691428156
60,totness,5.8833,-56.3167,31.75,57,44,4.13,SR,1691428157
61,blackmans bay,-43.0167,147.3167,7.51,91,40,1.85,AU,1691428157
62,alibag,18.6411,72.8792,28.04,82,100,5.03,IN,1691427376
63,thompson,55.7435,-97.8558,16.52,63,67,2.91,CA,1691428158
64,northam,51.0333,-4.2167,17.44,74,100,5.69,GB,1691428158
65,senillosa,-39.0,-68.4167,13.88,31,67,8.85,AR,1691428158
66,arraial do cabo,-22.9661,-42.0278,28.92,48,0,6.69,BR,1691428158
67,nueva palestina,15.8,-92.75,29.1,57,23,2.06,MX,1691428159
68,san jose del cabo,23.0589,-109.6977,34.77,63,40,4.12,MX,1691428159
69,shortandy,51.7006,70.9994,18.57,45,16,4.01,KZ,1691428159
70,shingu,33.7333,135.9833,26.72,93,96,5.13,JP,1691428160
71,reyes,-14.3167,-67.3833,35.69,30,0,2.12,BO,1691428160
72,fort bragg,35.139,-79.006,31.78,67,15,1.79,US,1691427896
73,stanley,54.868,-1.6985,17.06,67,20,8.23,GB,1691428161
74,alice springs,-23.7,133.8833,6.75,76,2,0.0,AU,1691428015
75,cadereyta,25.5833,-99.9833,31.82,35,0,3.26,MX,1691428162
76,baturite,-4.3286,-38.8847,35.71,25,46,5.04,BR,1691428162
77,el calafate,-50.3408,-72.2768,0.32,56,100,0.18,AR,1691428162
78,qaqortoq,60.7167,-46.0333,6.98,79,29,2.13,GL,1691428163
79,coban,15.4833,-90.3667,25.69,54,73,1.9,GT,1691428163
80,hawaiian paradise park,19.5933,-154.9731,26.05,96,20,2.06,US,1691428169
81,yellowknife,62.456,-114.3525,17.25,40,6,4.48,CA,1691428170
82,lumphat,13.4878,106.9816,23.49,95,6,0.91,KH,1691428173
83,veinticinco de mayo,-35.4323,-60.1727,12.77,42,0,2.24,AR,1691428174
84,xocotla,19.0333,-97.1,23.26,44,0,2.67,MX,1691428176
85,mizdah,31.4451,12.9801,33.97,23,0,4.95,LY,1691428177
86,loukhi,66.0764,33.0381,15.45,69,85,4.54,RU,1691428177
87,camacupa,-12.0167,17.4833,21.53,23,0,0.64,AO,1691428178
88,papatowai,-46.5619,169.4708,4.83,89,100,5.26,NZ,1691428178
89,fort st. john,56.2499,-120.8529,18.64,60,92,2.13,CA,1691428178
90,yeppoon,-23.1333,150.7333,15.88,88,2,5.43,AU,1691428179
91,aasiaat,68.7098,-52.8699,3.79,69,23,3.57,GL,1691428179
92,jianshui,23.6363,102.8264,19.99,95,99,1.06,CN,1691428179
93,fortuna,40.5982,-124.1573,19.64,92,100,4.12,US,1691428180
94,hamilton,39.1834,-84.5333,25.61,92,100,7.2,US,1691427962
95,inderbor,48.55,51.7833,30.72,24,0,3.83,KZ,1691428180
96,beyneu,45.3167,55.2,31.99,21,0,4.64,KZ,1691428180
97,punta arenas,-53.15,-70.9167,2.94,75,100,3.25,CL,1691428181
98,al kharijah,25.4514,30.5464,38.63,8,4,3.65,EG,1691428181
99,alaghsas,17.0187,8.0168,33.31,36,56,7.16,NE,1691428181
100,westport,41.1415,-73.3579,27.32,89,100,4.12,US,1691428182
101,la'ie,21.6477,-157.9253,26.98,85,31,6.32,US,1691428182
102,wanning,18.8003,110.3967,27.33,81,4,4.46,CN,1691428183
103,mamuju,-2.6748,118.8885,25.37,86,27,1.89,ID,1691428183
104,esquel,-42.9,-71.3167,8.51,54,75,1.87,AR,1691428037
105,brookings,44.3114,-96.7984,24.47,64,0,4.63,US,1691428184
106,havana,23.133,-82.383,32.13,66,3,5.03,CU,1691427612
107,oriximina,-1.7656,-55.8661,36.85,32,81,3.39,BR,1691428097
108,talnakh,69.4865,88.3972,17.34,53,28,1.77,RU,1691428185
109,araxa,-19.5933,-46.9406,29.09,17,0,1.38,BR,1691428185
110,tazovsky,67.4667,78.7,15.56,63,0,2.48,RU,1691428185
111,green river,41.5286,-109.4662,21.66,48,4,0.89,US,1691428023
112,okhotsk,59.3833,143.3,9.97,90,100,0.57,RU,1691428186
113,fale old settlement,-9.3852,-171.2468,27.85,69,17,6.01,TK,1691428186
114,hasaki,35.7333,140.8333,27.95,90,88,3.26,JP,1691428186
115,happy valley-goose bay,53.3168,-60.3315,16.02,69,99,2.15,CA,1691428187
116,ta`u,-14.2336,-169.5144,26.49,78,63,2.98,AS,1691428187
117,fada n'gourma,12.0622,0.3578,23.83,89,100,2.33,BF,1691428187
118,carnarvon,-24.8667,113.6333,20.56,78,18,2.92,AU,1691428187
119,isafjordur,66.0755,-23.124,13.2,58,28,1.97,IS,1691428188
120,laguna,38.421,-121.4238,34.06,44,0,3.09,US,1691428188
121,tome acu,-2.4189,-48.1522,35.6,35,77,2.17,BR,1691428188
122,erbil,36.1926,44.0106,36.9,14,0,3.09,IQ,1691428127
123,whitehorse,60.7161,-135.0538,18.23,60,71,0.89,CA,1691428189
124,constantia,44.1833,28.65,28.38,58,2,5.7,RO,1691428189
125,saida,34.8303,0.1517,36.69,11,0,6.08,DZ,1691428189
126,gaigeturi,33.4644,126.3183,28.22,86,10,8.38,KR,1691428190
127,enoch,37.7733,-113.0244,29.14,17,0,7.2,US,1691428190
128,bilibino,68.0546,166.4372,1.07,91,100,2.07,RU,1691428190
129,nova vicosa,-17.8919,-39.3719,24.8,70,79,5.04,BR,1691428190
130,luderitz,-26.6481,15.1594,17.07,67,1,5.06,NA,1691428191
131,huruta,8.15,39.35,16.52,79,51,1.93,ET,1691428191
132,ancud,-41.8697,-73.8203,10.48,66,98,2.49,CL,1691428191
133,dothan,31.2232,-85.3905,34.55,65,40,5.14,US,1691428112
134,mejit,10.2753,170.8646,28.27,76,99,7.86,MH,1691428192
135,namibe,-15.1961,12.1522,18.64,81,7,2.34,AO,1691428192
136,college,64.8569,-147.8028,22.34,71,75,1.54,US,1691428193
137,nacozari viejo,30.4,-109.65,26.25,55,74,1.41,MX,1691428193
138,buala,-8.145,159.5921,25.53,86,91,2.68,SB,1691428193
139,nadym,65.5333,72.5167,18.93,61,8,4.93,RU,1691428194
140,kolonia town,6.964,158.206,25.0,100,100,1.54,FM,1691428194
141,broome,42.2506,-75.833,25.56,86,100,5.66,US,1691428194
142,tsengel,49.4783,100.8894,15.34,79,22,0.85,MN,1691428194
143,rio grande,-32.035,-52.0986,15.06,67,87,8.31,BR,1691428195
144,santarem,-2.4431,-54.7083,32.07,66,20,6.17,BR,1691428195
145,pryamitsyno,51.6561,35.9314,23.3,88,61,4.69,RU,1691428195
146,selebi-phikwe,-21.979,27.8498,17.54,28,8,2.65,BW,1691428195
147,nicoya,10.1483,-85.452,28.48,77,99,1.3,CR,1691428196
148,lorengau,-2.0226,147.2712,27.5,75,95,6.79,PG,1691428196
149,kristiansund,63.1115,7.732,12.03,93,75,3.09,NO,1691428197
150,polyarnyy,69.1989,33.4478,18.14,66,63,6.24,RU,1691428197
151,geraldton,-28.7667,114.6,17.23,88,100,5.66,AU,1691428197
152,ribeira grande,38.5167,-28.7,26.22,73,40,5.66,PT,1691428197
153,la passe,45.5549,-0.8967,25.13,54,55,5.83,FR,1691428198
154,leava,-14.3,-178.1667,26.78,78,91,0.73,WF,1691428198
155,egilsstadir,65.2653,-14.3948,12.13,65,100,1.77,IS,1691428198
156,wau,7.7029,27.9953,25.57,69,77,1.39,SS,1691428199
157,pekanbaru,0.5333,101.45,27.18,83,20,2.06,ID,1691428199
158,atafu village,-8.5421,-172.5159,28.16,72,24,6.05,TK,1691428199
159,yamada,39.4667,141.95,24.49,98,100,3.33,JP,1691428199
160,aldinga beach,-35.2793,138.4604,10.37,86,47,2.98,AU,1691428200
161,aripuana,-9.1667,-60.6333,39.44,21,30,1.12,BR,1691428201
162,manokwari,-0.8667,134.0833,25.31,79,61,1.82,ID,1691428149
163,xuddur,4.1213,43.8894,25.45,60,97,8.33,SO,1691428201
164,nadi,-17.8,177.4167,20.0,88,40,3.09,FJ,1691428202
165,independence,39.0911,-94.4155,24.97,73,100,2.57,US,1691428084
166,klaksvik,62.2266,-6.589,11.51,81,98,4.27,FO,1691428203
167,vilyuchinsk,52.9306,158.4028,10.14,85,64,4.5,RU,1691427975
168,klyuchi,52.2667,79.1667,19.83,39,0,2.25,RU,1691428204
169,kavaratti,10.5669,72.642,28.05,78,82,8.41,IN,1691428205
170,longyearbyen,78.2186,15.6401,8.91,87,75,2.06,SJ,1691428205
171,kapa'a,22.0752,-159.319,27.18,88,100,5.66,US,1691428205
172,saldanha,-33.0117,17.9442,13.93,84,0,4.39,ZA,1691428206
173,castillos,-34.1667,-53.8333,12.0,56,5,6.45,UY,1691428207
174,saudarkrokur,65.7461,-19.6394,11.41,76,60,2.46,IS,1691428207
175,saint-philippe,-21.3585,55.7679,19.77,82,98,6.97,RE,1691428207
176,walvis bay,-22.9575,14.5053,17.83,41,0,7.87,NA,1691428208
177,bandar abbas,27.1865,56.2808,34.99,75,20,4.12,IR,1691428208
178,metlili chaamba,32.2667,3.6333,38.34,12,0,3.94,DZ,1691428208
179,twon-brass,4.3151,6.2418,25.99,75,45,5.58,NG,1691428209
180,east london,-33.0153,27.9116,19.35,75,38,6.55,ZA,1691428209
181,spitak,40.8322,44.2673,25.8,70,5,0.53,AM,1691428210
182,trinity beach,-16.7888,145.6968,20.03,88,100,5.66,AU,1691428210
183,holualoa,19.6228,-155.9522,24.93,75,0,3.09,US,1691428211
184,hami,42.8,93.45,33.55,13,98,2.52,CN,1691428212
185,hermanus,-34.4187,19.2345,13.78,82,0,1.01,ZA,1691428213
186,salalah,17.0151,54.0924,26.05,94,100,3.6,OM,1691428214
187,saurimo,-9.6608,20.3916,24.52,24,36,0.98,AO,1691428214
188,el granada,37.5027,-122.4694,31.59,70,0,2.57,US,1691428215
189,millau,44.0833,2.9167,24.45,29,48,3.67,FR,1691428215
190,newcastle west,52.4492,-9.0611,17.62,67,93,1.94,IE,1691428215
191,mount isa,-20.7333,139.5,12.87,58,83,3.09,AU,1691428216
192,bridgetown,13.1,-59.6167,29.49,72,100,3.4,BB,1691428216
193,oranjemund,-28.55,16.4333,13.9,76,0,3.31,NA,1691428216
194,ad dawadimi,24.5077,44.3924,33.44,10,0,5.04,SA,1691428217
195,pandan,14.0453,124.1694,27.69,82,28,4.52,PH,1691428217
196,pisco,-13.7,-76.2167,21.03,68,100,3.09,PE,1691427919
197,weno,7.4515,151.8468,28.97,84,100,3.6,FM,1691428218
198,sirte,31.2089,16.5887,27.62,58,0,6.78,LY,1691428218
199,tsiombe,-25.3,45.4833,20.38,76,0,3.4,MG,1691428219
200,santa terezinha,-29.9002,-50.0904,15.85,92,98,5.24,BR,1691428219
201,kupang,-10.1667,123.5833,23.34,77,5,5.6,ID,1691428219
202,tamanrasset,22.785,5.5228,35.95,15,40,5.66,DZ,1691428220
203,ust-nera,64.5667,143.2,6.93,58,93,2.49,RU,1691428220
204,seybaplaya,19.65,-90.6667,31.7,53,4,0.81,MX,1691428220
205,ar ruseris,11.8659,34.3869,26.32,71,54,0.61,SD,1691428221
206,opuwo,-18.0607,13.84,21.95,17,0,3.37,NA,1691428221
207,pauini,-7.7136,-66.9764,37.67,28,17,2.15,BR,1691428221
208,goure,13.9835,10.2704,27.71,67,99,1.52,NE,1691428221
209,lebu,-37.6167,-73.65,12.87,66,100,1.97,CL,1691428222
210,alappuzha,9.49,76.3264,26.03,87,77,4.26,IN,1691428222
211,hadibu,12.65,54.0333,25.78,79,26,8.04,YE,1691428222
212,nouadhibou,20.931,-17.0347,24.99,65,0,6.69,MR,1691428223
213,loreto,22.2667,-101.9667,25.91,27,2,1.8,MX,1691428223
214,guadalupe y calvo,26.1,-106.9667,24.82,40,3,2.07,MX,1691428223
215,rudbar,30.15,62.6,34.82,14,0,7.28,AF,1691428223
216,kerikeri,-35.2268,173.9474,7.18,94,23,1.66,NZ,1691428224
217,biysk,52.5364,85.2072,16.28,59,18,1.67,RU,1691428163
218,palu,-0.8917,119.8707,24.21,95,62,1.34,ID,1691428224
219,ola,59.5833,151.2833,8.35,54,22,4.74,RU,1691428225
220,pacific grove,36.6177,-121.9166,23.45,90,0,3.13,US,1691428116
221,alvaraes,-3.2208,-64.8042,32.93,30,77,2.04,BR,1691428225
222,svetlyy,54.675,20.1347,16.09,75,100,9.4,RU,1691428225
223,sarykemer,43.0,71.5,20.71,47,99,6.31,KZ,1691428226
224,coronado,32.6859,-117.1831,33.26,74,20,3.09,US,1691427991
225,paragominas,-2.9667,-47.4833,34.91,35,74,1.97,BR,1691428231
226,haiku-pauwela,20.9219,-156.3051,25.58,83,20,8.23,US,1691428232
227,tazacorte,28.629,-17.9293,25.54,65,75,1.03,ES,1691428232
228,port lincoln,-34.7333,135.8667,10.85,77,2,4.09,AU,1691428233
229,katsuren-haebaru,26.3369,127.8719,27.01,92,100,10.77,JP,1691428233
230,mawu,29.5923,107.3139,24.63,91,91,1.7,CN,1691428233
231,banamba,13.55,-7.45,30.77,52,95,3.81,ML,1691428234
232,vuktyl,63.8567,57.3094,16.79,83,92,6.03,RU,1691428234
233,comodoro rivadavia,-45.8667,-67.5,10.92,43,0,4.63,AR,1691428203
234,mount pearl,47.5166,-52.7813,15.81,94,100,8.23,CA,1691428235
235,kilindoni,-7.9139,39.6668,24.42,80,3,6.49,TZ,1691428235
236,badger,64.8,-147.5333,22.3,72,75,1.54,US,1691428176
237,lagos,6.5833,3.75,25.86,79,52,3.41,NG,1691428235
238,oyama,36.3,139.8,30.33,83,100,1.45,JP,1691428236
239,new norfolk,-42.7826,147.0587,8.17,87,60,1.25,AU,1691428236
240,saipan,15.1355,145.701,27.39,100,40,0.45,MP,1691428183
241,atherton,53.5237,-2.4935,19.05,60,75,2.24,GB,1691428074
242,pampa del indio,-26.0647,-59.919,26.82,50,48,5.52,AR,1691428237
243,paidha,2.4167,30.9855,17.84,82,62,2.13,UG,1691428237
244,bukene,-4.2333,32.8833,24.5,30,13,2.4,TZ,1691428237
245,keflavik,64.0049,-22.5624,13.24,82,75,3.09,IS,1691428238
246,charters towers,-20.1,146.2667,12.93,82,1,2.78,AU,1691428238
247,frutal,-20.0247,-48.9406,33.39,17,47,2.19,BR,1691428238
248,novouzensk,50.4592,48.1431,27.03,37,0,2.75,RU,1691428154
249,nabire,-3.3667,135.4833,23.95,90,100,2.28,ID,1691428239
250,kingston,17.997,-76.7936,34.02,66,16,0.45,JM,1691428239
251,kidal,18.4411,1.4078,39.0,21,25,5.4,ML,1691428239
252,vila franca do campo,37.7167,-25.4333,23.23,58,91,1.96,PT,1691428240
253,kyren,51.6828,102.1408,15.12,95,64,0.74,RU,1691428240
254,balqash,46.8481,74.995,23.93,56,66,2.7,KZ,1691428240
255,taoudenni,22.6783,-3.9836,46.54,9,1,5.62,ML,1691428240
256,ambovombe,-25.1667,46.0833,20.53,71,8,4.32,MG,1691428241
257,yurty,56.0498,97.6348,13.36,96,21,1.74,RU,1691428241
258,fort drum,44.0584,-75.7619,26.21,75,100,5.11,US,1691428241
259,callao,-12.0667,-77.15,24.84,64,100,4.12,PE,1691428242
260,skikda,36.8762,6.9092,24.36,61,0,3.4,DZ,1691427789
261,nova sintra,14.8667,-24.7167,22.45,78,88,6.29,CV,1691428242
262,prado,-17.3411,-39.2208,24.62,72,85,4.29,BR,1691428242
263,parakou,9.3372,2.6303,23.03,94,97,1.53,BJ,1691428243
264,altai,46.3722,96.2583,17.44,37,42,1.43,MN,1691428243
265,puerto aysen,-45.4,-72.7,8.21,85,100,0.98,CL,1691428243
266,tura,25.5198,90.2201,24.18,97,100,2.06,IN,1691428243
267,can tho,10.0333,105.7833,25.99,100,20,1.03,VN,1691428244
268,jian'ou,27.0469,118.3253,26.04,92,91,0.79,CN,1691428244
269,balsas,-7.5325,-46.0356,37.58,20,31,2.84,BR,1691428244
270,port alfred,-33.5906,26.891,16.77,91,4,0.45,ZA,1691428245
271,urzhar,47.093,81.6294,20.29,72,84,1.94,KZ,1691428245
272,katsuura,35.1333,140.3,26.32,90,67,3.66,JP,1691428245
273,vallenar,-28.5708,-70.7581,24.77,22,52,3.05,CL,1691428245
274,escanaba,45.7453,-87.0646,27.2,50,0,1.54,US,1691428246
275,gejiu,23.306,103.1635,15.26,95,100,0.51,CN,1691428246
276,bikenibeu village,1.3673,173.1241,28.65,74,76,4.22,KI,1691428246
277,vorgashor,67.5833,63.95,12.94,87,60,5.28,RU,1691428247
278,beloyarskiy,63.7119,66.6722,19.81,59,42,2.16,RU,1691428247
279,odienne,9.51,-7.5692,24.26,87,100,1.99,CI,1691428247
280,vilyuysk,63.7553,121.6247,14.71,71,8,1.72,RU,1691428247
281,bibiani,6.4635,-2.3194,25.32,92,82,1.39,GH,1691428248
282,tolanaro,-25.0319,46.9987,20.61,81,48,5.49,MG,1691428248
283,tezu,27.9167,96.1667,25.46,93,88,1.3,IN,1691428248
284,kajaani,64.2273,27.7285,26.03,69,20,5.14,FI,1691428249
285,ponnani,10.767,75.9252,25.62,84,100,3.56,IN,1691428249
286,laojunmiao,39.8333,97.7333,24.35,23,89,3.44,CN,1691428249
287,sena madureira,-9.0656,-68.6569,38.49,28,15,1.11,BR,1691428250
288,hilo,19.7297,-155.09,29.6,89,20,2.06,US,1691428250
289,at taj,24.2049,23.2857,38.27,15,73,8.8,LY,1691428250
290,cabo san lucas,22.8909,-109.9124,34.78,67,20,3.09,MX,1691427963
291,cartagena,10.3997,-75.5144,34.79,55,20,6.17,CO,1691427890
292,greymouth,-42.4667,171.2,6.12,87,94,2.44,NZ,1691428251
293,turbat,26.0023,63.044,29.95,68,4,3.38,PK,1691428251
294,morehead city,34.7229,-76.726,33.01,75,0,6.17,US,1691428252
295,iskateley,67.6803,53.1512,9.82,81,5,6.06,RU,1691428252
296,nampula,-15.1165,39.2666,19.71,78,89,2.38,MZ,1691428252
297,divino das laranjeiras,-18.7778,-41.4797,30.53,30,0,1.66,BR,1691428253
298,mastung,29.7994,66.845,28.49,18,1,2.95,PK,1691428253
299,villa carlos paz,-31.4241,-64.4978,17.81,16,4,3.58,AR,1691428253
300,mont-dore,-22.2833,166.5833,14.99,85,33,2.12,NC,1691428254
301,hassi messaoud,31.6804,6.0729,39.28,14,0,5.99,DZ,1691428254
302,general cabrera,-32.8131,-63.8724,15.57,24,1,3.01,AR,1691428254
303,winters,38.5249,-121.9708,35.55,35,0,4.12,US,1691428255
304,kedougou,12.5579,-12.1743,27.75,81,100,2.98,SN,1691427962
305,shush,32.1942,48.2436,40.61,10,0,5.67,IR,1691428255
306,puerto san jose,13.9256,-90.8244,30.61,62,91,1.29,GT,1691428255
307,hastings,50.8552,0.5729,20.55,22,89,8.46,GB,1691428256
308,alo,7.4178,6.7371,26.02,90,82,2.14,NG,1691428256
309,olonkinbyen,70.9221,-8.7187,4.36,83,15,3.13,SJ,1691428256
310,afaahiti,-17.75,-149.2833,23.93,76,94,6.05,PF,1691428257
311,galesong,-5.3166,119.3661,22.01,77,6,3.66,ID,1691428257
312,codrington,-38.2667,141.9667,5.83,92,2,2.3,AU,1691428257
313,makarov,48.6333,142.8,14.37,83,16,1.92,RU,1691428258
314,jayapura,-2.5333,140.7,25.66,91,81,1.41,ID,1691427844
315,maceio,-9.6658,-35.7353,26.69,78,75,6.69,BR,1691428258
316,bich'vinta,43.1592,40.3378,27.1,87,0,1.61,GE,1691428258
317,mahdia,35.5047,11.0622,29.97,52,0,8.49,TN,1691428259
318,guaiba,-30.1139,-51.325,14.41,92,100,2.57,BR,1691428259
319,chom bueng,13.62,99.5917,25.54,76,100,2.47,TH,1691428260
320,praia da vitoria,38.7333,-27.0667,25.42,84,49,2.82,PT,1691428145
321,moscow,55.7522,37.6156,27.43,51,0,6.27,RU,1691428130
322,colonia,50.9333,6.95,19.97,62,20,6.69,DE,1691428260
323,rajin,42.2489,130.3003,18.21,97,100,2.8,KP,1691428261
324,labuan,5.2767,115.2417,28.98,74,71,3.24,MY,1691428261
325,siniscola,40.5719,9.6922,27.75,32,11,4.59,IT,1691428261
326,itoman,26.1247,127.6694,27.01,94,75,11.32,JP,1691428262
327,san luis de la loma,17.2706,-100.8939,31.48,56,8,2.44,MX,1691428262
328,lobva,59.1854,60.5185,17.11,94,80,0.63,RU,1691428262
329,gadzhiyevo,69.2551,33.3362,18.16,66,63,6.1,RU,1691428263
330,petropolis,59.8944,30.2642,30.09,58,0,7.0,RU,1691428119
331,ispir,40.4829,40.9956,25.24,59,10,2.47,TR,1691428263
332,belmonte,-15.8631,-38.8828,24.12,79,95,3.32,BR,1691428264
333,thinadhoo,0.5333,72.9333,27.91,75,72,3.45,MV,1691428264
334,linxia chengguanzhen,35.6003,103.2064,18.24,75,20,1.48,CN,1691428264
335,inarajan village,13.2736,144.7484,27.54,97,82,0.81,GU,1691428264
336,asilah,35.465,-6.0348,32.98,62,58,1.98,MA,1691428265
337,saynshand,44.8824,110.1163,23.07,52,1,7.14,MN,1691428265
338,chai badan,15.2,101.1333,25.47,85,100,1.56,TH,1691428266
339,kanchanaburi,14.6333,99.1,24.28,89,100,2.11,TH,1691428266
340,awjilah,29.1081,21.2869,33.81,30,0,7.73,LY,1691428266
341,menongue,-14.6585,17.691,20.1,26,0,1.96,AO,1691428267
342,shihezi,44.3,86.0333,26.54,41,100,2.67,CN,1691428267
343,kirensk,57.7853,108.1119,17.88,93,94,1.51,RU,1691428267
344,chegdomyn,51.1167,133.0167,13.59,70,51,1.06,RU,1691428268
345,javea,38.7833,0.1667,29.24,71,51,7.6,ES,1691428268
346,ciudad lazaro cardenas,17.9583,-102.2,32.76,49,29,1.85,MX,1691428215
347,kiruna,67.8557,20.2251,13.51,100,100,1.54,SE,1691428268
348,cadale,2.7603,46.3222,24.99,82,42,9.04,SO,1691428269
349,floro,61.5996,5.0328,12.04,82,75,9.77,NO,1691428269
350,soe,-9.8607,124.284,15.84,88,32,2.22,ID,1691428270
351,koungou,-12.7336,45.2042,24.84,73,0,3.09,YT,1691428270
352,balachor,31.0667,76.3167,28.6,74,2,1.68,IN,1691428270
353,diego de almagro,-26.3667,-70.05,27.73,11,3,3.07,CL,1691427934
354,tarrafal,15.2833,-23.7667,31.44,75,86,5.34,CV,1691428271
355,turochak,52.2576,87.1224,14.92,81,82,0.46,RU,1691428271
356,greenville,35.6127,-77.3663,33.4,63,0,2.57,US,1691428215
357,tuam,53.5167,-8.85,14.96,79,98,3.25,IE,1691428272
358,dudinka,69.4058,86.1778,17.57,47,43,1.23,RU,1691428277
359,fisterra,42.9049,-9.2629,22.08,59,0,9.63,ES,1691428278
360,vrangel',42.7297,133.0839,17.98,85,99,3.69,RU,1691428278
361,famagusta,35.125,33.95,31.72,85,0,2.78,CY,1691428278
362,sydney,-33.8679,151.2073,12.02,90,100,2.57,AU,1691427860
363,crane,31.3974,-102.3501,35.82,24,6,8.73,US,1691428279
364,conde,-7.2597,-34.9075,27.7,69,75,6.69,BR,1691428279
365,lihue,21.9789,-159.3672,26.77,85,100,5.66,US,1691428279
366,toliara,-23.35,43.6667,21.14,78,52,1.68,MG,1691428280
367,sechura,-5.5569,-80.8222,26.17,57,4,3.43,PE,1691428280
368,qamdo,31.1667,97.2333,6.8,79,62,1.46,CN,1691428281
369,page,36.9147,-111.4558,31.88,20,0,2.57,US,1691428281
370,sao joao da barra,-21.6403,-41.0511,30.05,55,0,4.5,BR,1691428281
371,devarkonda,16.7,78.9333,27.92,62,99,4.43,IN,1691428281
372,paradip garh,20.3167,86.6167,27.98,78,100,3.99,IN,1691428282
373,zakynthos,37.7914,20.8953,28.13,54,20,3.6,GR,1691428282
374,miquelon,47.0975,-56.3814,21.0,82,39,6.46,PM,1691428282
375,cedeira,43.6797,-8.0209,28.33,73,0,10.28,ES,1691428283
376,haapavesi,64.1333,25.3667,28.07,70,1,2.68,FI,1691428283
377,freeport,40.6576,-73.5832,28.5,68,0,8.23,US,1691427710
378,puerto cabezas,14.0351,-83.3888,29.19,78,100,4.84,NI,1691428283
379,newman,37.3138,-121.0208,32.25,50,0,0.89,US,1691428284
380,tocopilla,-22.092,-70.1979,21.13,68,14,3.53,CL,1691428284
381,kapustin yar,48.5831,45.7372,31.84,24,0,5.39,RU,1691428284
382,kapuskasing,49.4169,-82.4331,24.26,45,99,1.49,CA,1691428285
383,dapa,9.7594,126.0531,28.17,72,71,3.6,PH,1691428285
384,homer,59.6425,-151.5483,15.98,82,75,2.57,US,1691428285
385,ciudad acuna,29.3232,-100.9522,35.23,42,0,4.63,MX,1691428215
386,wynyard,-41.0,145.7167,7.42,84,17,2.89,AU,1691428286
387,kirakira,-10.4544,161.9205,24.93,90,86,3.47,SB,1691428286
388,rudnichnyy,59.617,52.4703,18.66,76,95,2.59,RU,1691428286
389,makarska,43.2969,17.0178,23.0,64,19,3.73,HR,1691428287
390,maracaibo,10.6317,-71.6406,34.63,50,91,2.56,VE,1691428287
391,carolina,18.3808,-65.9574,32.94,75,40,9.77,PR,1691428287
392,naryn,41.4287,75.9911,12.28,63,100,1.69,KG,1691428287
393,morant bay,17.8815,-76.4093,34.28,66,2,5.78,JM,1691428288
394,villamontes,-21.25,-63.5,28.69,32,0,7.72,BO,1691428288
395,ugoofaaru,5.6667,73.0,27.85,79,96,5.66,MV,1691428288
396,utrik,11.2278,169.8474,28.23,75,72,7.8,MH,1691428289
397,lupane,-18.9315,27.807,19.72,32,19,1.83,ZW,1691428289
398,kumagunnam,13.1551,10.6342,29.69,57,97,1.7,NG,1691428289
399,yanchep,-31.55,115.6833,19.07,87,83,3.58,AU,1691428289
400,chicoana,-25.1009,-65.5331,18.04,52,75,1.78,AR,1691428290
401,saint-pierre,-21.3393,55.4781,20.32,88,75,11.32,RE,1691428290
402,suntar,62.1444,117.6319,17.89,60,39,2.44,RU,1691428290
403,sitka,57.0531,-135.33,15.94,82,40,1.54,US,1691427954
404,yaren,-0.5472,166.916,28.22,68,90,1.94,NR,1691428291
405,quellon,-43.1167,-73.6167,9.66,65,76,1.8,CL,1691428291
406,moyale,3.5167,39.0584,23.23,43,66,3.83,KE,1691428291
407,nelson bay,-32.7167,152.15,13.33,98,9,3.13,AU,1691428292
408,iquique,-20.2208,-70.1431,19.61,71,27,3.51,CL,1691428264
409,nar'yan-mar,67.6713,53.087,9.85,81,5,6.06,RU,1691428292
410,alofi,-19.0595,-169.9187,23.36,86,100,8.9,NU,1691428293
411,murghob,38.1702,73.9667,13.36,27,40,2.8,TJ,1691428293
412,mercedes,-34.6515,-59.4307,12.14,42,3,4.7,AR,1691428293
413,ghat,24.9647,10.1728,41.63,6,0,5.55,LY,1691427906
414,lerwick,60.1545,-1.1494,14.0,64,12,5.89,GB,1691428294
415,la ronge,55.1001,-105.2842,17.67,47,34,2.88,CA,1691428294
416,ceeldheer,3.8488,47.1806,25.46,74,29,9.24,SO,1691428295
417,sukhodol,53.9006,51.2117,23.04,45,8,3.24,RU,1691428295
418,cartagena del chaira,1.3349,-74.8429,31.5,48,95,1.82,CO,1691428295
419,esperanza,19.5847,-70.9849,30.32,43,6,7.01,DO,1691428295
420,bamyan,34.75,67.25,9.43,61,1,3.06,AF,1691428296
421,shahrak,34.1074,64.3052,16.03,41,0,3.25,AF,1691428296
422,sawa sawa,-4.4717,39.4846,24.43,80,3,5.02,KE,1691428296
423,cockburn town,21.4612,-71.1419,30.98,70,75,6.17,TC,1691428296
424,jamestown,42.097,-79.2353,21.12,95,100,4.63,US,1691428075
425,chernyshevskiy,63.0128,112.4714,14.27,75,100,2.8,RU,1691428297
426,yemetsk,63.4721,41.7941,18.27,71,1,2.6,RU,1691428297
427,fuente del maestre,38.5266,-6.4478,42.48,7,1,4.14,ES,1691428297
428,san pedro pochutla,15.7333,-96.4667,34.84,54,2,2.23,MX,1691428298
429,huarmey,-10.0681,-78.1522,22.21,68,17,4.2,PE,1691428298
430,gariaband,20.635,82.0614,24.52,84,100,3.55,IN,1691428298
431,padang,-0.9492,100.3543,26.03,91,50,1.79,ID,1691428299
432,piti village,13.4626,144.6933,27.49,96,100,2.06,GU,1691428299
433,san patricio,28.017,-97.5169,36.4,37,1,6.87,US,1691428299
434,kruisfontein,-34.0033,24.7314,16.05,93,0,2.79,ZA,1691428300
435,lingig,8.0389,126.4125,25.86,84,99,2.09,PH,1691428300
436,asasa,7.1,39.2,13.49,86,20,1.2,ET,1691428300
437,kagoro,9.6,8.3833,21.73,92,91,1.78,NG,1691428301
438,labrador city,52.9463,-66.9114,17.97,60,92,3.06,CA,1691428301
439,south molton,51.0167,-3.8333,18.8,74,100,5.6,GB,1691428301
440,mitu,1.1983,-70.1733,28.45,77,66,1.04,CO,1691428302
441,urangan,-25.3,152.9,17.5,73,53,4.69,AU,1691428302
442,canon city,38.441,-105.2424,29.67,42,0,3.6,US,1691428302
443,digne-les-bains,44.0833,6.25,23.52,24,3,2.78,FR,1691428302
444,abra pampa,-22.7205,-65.697,14.17,10,0,5.92,AR,1691428303
445,ha'il,27.5219,41.6907,32.87,11,0,5.38,SA,1691428303
446,nyurba,63.2842,118.3319,14.98,67,80,2.47,RU,1691428303
447,santiago de cao,-7.9589,-79.2392,23.07,73,75,4.63,PE,1691428304
448,maslyanino,54.3436,84.2111,18.16,53,88,1.34,RU,1691428304
449,seven pagodas,12.6264,80.1722,31.03,75,100,6.2,IN,1691428304
450,chamzinka,54.4019,45.7839,21.32,56,0,3.09,RU,1691428304
451,sake,-1.5736,29.045,19.93,61,71,0.81,CD,1691428305
452,kalifornsky,60.4183,-151.29,14.66,98,75,2.06,US,1691428305
453,sur,22.5667,59.5289,33.38,52,9,3.86,OM,1691428305
454,arendal,58.4615,8.7725,14.89,89,100,5.28,NO,1691428305
455,tiznit,29.5833,-9.5,29.08,45,1,4.15,MA,1691428306
456,shitanjing,39.2342,106.3439,24.16,57,37,5.74,CN,1691428306
457,queenstown,-31.8976,26.8753,15.84,28,0,2.58,ZA,1691428306
458,swakopmund,-22.6833,14.5333,17.77,75,0,2.24,NA,1691428307
459,ornskoldsvik,63.2909,18.7153,24.53,88,100,2.06,SE,1691428307
460,mek'ele,13.4967,39.4753,19.47,70,85,0.66,ET,1691428307
461,dolinsk,47.35,142.8,12.5,88,90,1.52,RU,1691428307
462,brasileia,-11.0161,-68.7481,35.25,49,75,2.06,BR,1691428308
463,sona,45.4388,10.8255,26.75,26,20,3.6,IT,1691428308
464,cajamarca,-7.1638,-78.5003,23.04,33,40,4.63,PE,1691428308
465,gemena,3.25,19.7667,20.62,99,100,0.68,CD,1691428309
466,caraballeda,10.6112,-66.8522,34.37,62,40,2.57,VE,1691428309
467,ateli mandi,28.1,76.2833,31.33,55,36,6.1,IN,1691428309
468,casper,42.8666,-106.3131,20.4,58,0,4.63,US,1691428158
469,kaa-khem,51.6833,94.7333,19.29,69,100,2.06,RU,1691428310
470,tromso,69.6496,18.957,11.01,87,75,4.12,NO,1691428310
471,gaiman,-43.2897,-65.4929,12.54,34,6,9.0,AR,1691428310
472,griffith,41.5284,-87.4237,24.52,78,100,5.66,US,1691428311
473,howard springs,-12.497,131.047,22.95,69,22,2.67,AU,1691428311
474,luau,-10.7073,22.2247,24.55,25,0,1.35,AO,1691428311
475,al qubbah,32.7616,22.2424,22.88,63,0,7.74,LY,1691428311
476,tofol,5.3248,163.0078,27.64,78,100,3.68,FM,1691428312
477,chingola,-12.529,27.8838,19.7,34,12,0.74,ZM,1691428312
478,witu,-2.3889,40.4382,24.07,81,24,6.58,KE,1691428312
479,acapulco de juarez,16.8634,-99.8901,30.9,66,20,1.54,MX,1691428286
480,yantzaza,-3.8278,-78.7594,27.56,48,85,1.03,EC,1691428313
481,talcahuano,-36.7167,-73.1167,13.42,64,99,2.37,CL,1691428202
482,gorontalo,0.5412,123.0595,24.03,90,71,2.58,ID,1691428313
483,port hedland,-20.3167,118.5667,17.03,72,4,4.12,AU,1691428313
484,argo,37.6333,22.7333,30.99,49,0,1.96,GR,1691428314
485,kailua-kona,19.6406,-155.9956,27.0,75,0,3.09,US,1691428075
486,trujillo,-8.116,-79.03,22.98,73,75,4.63,PE,1691428314
487,mirialguda,16.8667,79.5833,28.69,63,99,3.09,IN,1691428314
488,barlig,17.0373,121.1038,16.42,92,100,1.99,PH,1691428315
489,brezina,33.0989,1.2608,39.66,7,0,9.02,DZ,1691428315
490,prien,30.1819,-93.2738,35.12,55,40,4.63,US,1691428315
491,usinsk,65.9939,57.5281,16.12,66,100,5.59,RU,1691428315
492,kyshtovka,56.555,76.6271,17.17,76,61,2.75,RU,1691428316
493,najran,17.4924,44.1277,32.13,13,50,3.88,SA,1691428316
494,nyagan,62.1406,65.3936,19.13,79,14,3.04,RU,1691428316
495,lubang,13.8584,120.124,28.56,81,72,8.8,PH,1691428316
496,rangsdorf,52.295,13.4334,19.45,56,0,10.29,DE,1691428317
497,maturin,9.75,-63.1767,31.91,100,65,3.6,VE,1691428168
498,sakaiminato,35.55,133.2333,27.16,77,84,2.15,JP,1691428317
499,cabedelo,-6.9811,-34.8339,28.37,71,15,7.04,BR,1691428317
500,langsa,4.4683,97.9683,23.75,96,100,0.46,ID,1691428318
501,klimovo,52.3805,32.1923,17.19,88,82,7.21,RU,1691428318
502,hanceville,34.0607,-86.7675,33.59,48,4,6.17,US,1691428120
503,akjoujt,19.6969,-14.4164,38.65,13,0,4.8,MR,1691428319
504,moranbah,-22.0016,148.0466,13.23,89,0,2.2,AU,1691428251
505,kone,-21.0595,164.8658,15.69,90,0,2.01,NC,1691428319
506,bardai,11.65,7.2333,25.29,76,85,2.88,NG,1691428320
507,sooke,48.3746,-123.7276,24.21,70,57,2.19,CA,1691428320
508,letlhakeng,-24.0944,25.0298,16.1,19,0,3.85,BW,1691428283
509,remire-montjoly,4.9167,-52.2667,32.02,58,0,7.2,GF,1691428320
510,cannonvale,-20.2833,148.7,18.66,83,8,5.05,AU,1691428321
511,ishqoshim,36.7248,71.6133,14.69,55,38,2.29,TJ,1691428322
512,caleta de carquin,-11.0925,-77.6267,21.55,67,13,4.7,PE,1691428322
513,zyrya,40.3661,50.2917,27.05,72,4,1.0,AZ,1691428323
514,fort mcmurray,56.7268,-111.381,18.33,49,99,1.35,CA,1691428323
515,avrig,45.7167,24.3833,20.36,67,35,2.91,RO,1691428131
516,comandante fontana,-25.3345,-59.6821,29.11,43,28,5.31,AR,1691428323
517,karaton,-6.3424,106.1045,22.97,92,61,0.16,ID,1691428324
518,stawell,-37.05,142.7667,3.57,93,0,3.25,AU,1691428324
519,tangalle,6.024,80.7911,26.59,83,100,5.59,LK,1691428325
520,pubal,37.2917,127.5078,22.2,94,1,2.17,KR,1691428325
521,changzhi,35.2089,111.7386,24.6,79,98,1.35,CN,1691428325
522,magadan,59.5667,150.8,7.94,54,29,4.07,RU,1691428326
523,stettler,52.3168,-112.7186,22.08,54,13,2.31,CA,1691428326
524,nemuro,43.3236,145.575,14.33,97,100,6.57,JP,1691428326
525,tvoroyri,61.5556,-6.8111,10.78,90,98,7.82,FO,1691428326
526,jesup,31.6074,-81.8854,33.52,55,0,3.09,US,1691428327
527,benjamin constant,-4.3831,-70.0311,33.07,66,40,2.06,BR,1691428327
528,jilma,35.2731,9.4239,34.66,18,0,7.49,TN,1691428327
529,kistelek,46.4725,19.9797,14.96,67,76,7.7,HU,1691428328
530,kandi,11.1342,2.9386,24.42,86,90,3.2,BJ,1691428328
531,puerto lempira,15.2667,-83.7667,32.08,66,40,4.63,HN,1691428328
532,stornoway,58.2093,-6.3865,15.05,80,75,2.06,GB,1691428329
533,myrina,39.8797,25.0742,29.58,42,0,1.54,GR,1691428329
534,freetown,8.484,-13.2299,26.84,83,75,3.09,SL,1691427897
535,chrysoupolis,40.9856,24.6939,28.27,54,0,2.06,GR,1691428330
536,buchloe,48.0333,10.7333,15.16,70,75,3.13,DE,1691428330
537,tshikapa,-6.4167,20.8,30.88,23,15,1.69,CD,1691428260
538,bethanie,-26.4833,17.15,21.08,14,0,3.52,NA,1691428331
539,nuuk,64.1835,-51.7216,8.34,81,0,3.09,GL,1691428331
540,coracao de jesus,-16.6853,-44.365,30.9,19,0,1.78,BR,1691428332
541,agboville,5.928,-4.2132,28.01,71,100,1.95,CI,1691428332
542,darwin,-12.4611,130.8418,22.99,64,75,1.54,AU,1691427752
543,dodge city,37.7528,-100.0171,26.49,53,20,2.06,US,1691428319
544,ylistaro,62.9396,22.5131,29.9,67,45,3.13,FI,1691428333
545,lodwar,3.1191,35.5973,31.45,30,7,2.98,KE,1691428333
546,dzuunharaa,48.8523,106.4579,15.45,89,27,1.27,MN,1691428333
547,karachi,24.9056,67.0822,27.9,78,75,8.75,PK,1691427789
548,monrovia,6.3005,-10.7969,26.87,78,87,5.36,LR,1691428334
549,tongerlo,51.1131,4.9155,19.51,62,79,2.68,BE,1691428334
550,daru,-9.0763,143.2092,23.33,84,60,4.52,PG,1691428334
551,lautoka,-17.6167,177.4667,19.92,88,40,3.09,FJ,1691428334
552,kalmunai,7.4167,81.8167,27.89,79,93,2.89,LK,1691428335
553,sitia,35.2,26.0986,27.77,72,0,3.49,GR,1691428335
554,navoloki,57.4657,41.9634,22.34,73,2,2.67,RU,1691428335
555,franklin,39.9667,-83.0166,26.99,83,100,5.14,US,1691428043
556,baud,20.8333,84.3167,26.67,81,100,3.29,IN,1691428336
